{
  "zones": [
    {
      "reindeer": "Prancer",
      "countryCode": "BO",
      "cityName": "Santa Cruz",
      "center": {
        "lat": -17.7539,
        "lon": -63.226
      },
      "radius": {
        "unit": "kilometer",
        "value": 1.67
      }
    },
    {
      "reindeer": "Dancer",
      "countryCode": "GF",
      "cityName": "Saint-Georges",
      "center": {
        "lat": 3.9105,
        "lon": -51.81
      },
      "radius": {
        "unit": "kilometer",
        "value": 1.841
      }
    },
    {
      "reindeer": "Blitzen",
      "countryCode": "RU",
      "cityName": "Vitim",
      "center": {
        "lat": 59.4515,
        "lon": 112.5578
      },
      "radius": {
        "unit": "kilometer",
        "value": 1.861
      }
    },
    {
      "reindeer": "Vixen",
      "countryCode": "US",
      "cityName": "Blairsville",
      "center": {
        "lat": 40.4325,
        "lon": -79.2599
      },
      "radius": {
        "unit": "foot",
        "value": 5511.7999927887276
      }
    },
    {
      "reindeer": "Comet",
      "countryCode": "AU",
      "cityName": "Sale",
      "center": {
        "lat": -38.1096,
        "lon": 147.06
      },
      "radius": {
        "unit": "kilometer",
        "value": 1.784
      }
    },
    {
      "reindeer": "Donner",
      "countryCode": "PH",
      "cityName": "Digos",
      "center": {
        "lat": 6.7497,
        "lon": 125.3572
      },
      "radius": {
        "unit": "meter",
        "value": 1801.0
      }
    },
    {
      "reindeer": "Cupid",
      "countryCode": "CN",
      "cityName": "Baishan",
      "center": {
        "lat": 41.9,
        "lon": 126.43
      },
      "radius": {
        "unit": "meter",
        "value": 1850.0
      }
    },
    {
      "reindeer": "Dasher",
      "countryCode": "PH",
      "cityName": "San Fernando",
      "center": {
        "lat": 15.0343,
        "lon": 120.6844
      },
      "radius": {
        "unit": "kilometer",
        "value": 1.768
      }
    }
  ],
  "token": "OUn2BREa6Iqmi2hgVMQIQiBHh2ANSmVw1ygtySs56tRnuIrMQjHiS5mQw4dBMxlGEYy5tqGZecaqmCQwXqWU7Q=="
}